UAV_ID,Timestamp,Latitude,Longitude,Altitude,Velocity,Yaw,Pitch,Roll,Wind_Speed,Temperature,Obstacle_Distance,Battery_Level,Camera_Feed_Active,LiDAR_Detection,Task_ID,Task_Type,Task_Completion_Time,Task_Success,Coverage_Efficiency,Communication_Signal_Strength
1102,2025-01-01 00:00:00,30.452186701061894,-88.04222014316454,350.6370044372841,44.10189684983882,198.19140501464122,-35.44075551703894,0.5087421184815639,12.18935526733244,5.965844001068701,62.377219065085285,71.75573666698443,1,0,1,Tracking,577.8638268527947,1,40.74591470711415,-66.72633875011755
1435,2025-01-01 00:01:00,30.26366974497252,-89.92437125021858,470.5530426920347,47.51860925735577,146.65158871661964,24.828952902272377,-16.0258896810311,16.411528786676996,2.6101201079665444,18.90172827464972,59.53005929130165,1,0,2,Tracking,404.91919839618845,0,40.0,-69.56287332858051
1860,2025-01-01 00:02:00,33.7646336687805,-83.52525285845397,107.64643777190561,13.404139444791415,187.69572773054682,27.716159529811705,20.7197985413236,5.704886846135331,37.79593999810221,46.943486215404384,69.62230536806743,1,0,3,Object Detection,517.4053361900997,1,68.85038712214038,-32.78669201722246
1270,2025-01-01 00:03:00,38.10553330781833,-81.01969451050013,290.73738732712684,25.423903700533334,322.76687704884364,24.098815594290386,13.62976858440831,4.784221760684375,36.16497541349647,72.032291647856,63.53600016909023,0,0,4,Tracking,351.63548625345277,1,64.0732046452736,-79.03477916410667
1106,2025-01-01 00:04:00,39.872761293149445,-87.56517703423701,375.08881697222427,12.841395561760084,70.66594883198414,-34.7430701592683,28.845670463331096,15.739515987624017,12.865830494641017,52.94357405412765,79.18370975488793,0,1,5,Surveillance,283.7094976985366,0,50.01864121936072,-31.73056481682852
1071,2025-01-01 00:05:00,31.504168911035283,-80.72965455203693,389.0827830792914,18.431724062001145,8.123224213925004,12.951716136098824,-20.658444134644025,1.1276370770646316,32.30969330771867,39.54890761835702,76.4749294169296,0,0,6,Recon,587.6787695612978,1,76.17635675656312,-72.53690515055969
1700,2025-01-01 00:06:00,35.94130715352135,-89.3973260971044,377.0129726148432,19.174631081506895,310.1993584916763,30.089231617445876,-16.460125016876695,7.387652951651702,12.6161738817148,32.233845808094365,62.73519134468954,1,0,7,Object Detection,374.3455402427115,1,61.9108976904121,-39.02809591033659
1020,2025-01-01 00:07:00,33.808908566310215,-80.65563973194486,153.77405176324874,28.764288441903147,207.76214965964633,6.9618061097700945,-17.29211100710984,10.116184451846594,11.219450903625521,61.039386664405356,74.31224166877655,0,0,8,Surveillance,528.1117347115567,1,52.816711042232896,-66.20387234659485
1614,2025-01-01 00:08:00,39.69914397814603,-86.48377312760365,219.75823534867249,20.742486698145704,320.63704396626326,13.176663770528009,17.552386057280202,11.206973487006469,-2.1618526200352672,93.91086983102406,89.88476818180902,0,1,9,Tracking,574.7778940377966,1,56.20328649509511,-62.46488362846363
1121,2025-01-01 00:09:00,38.42118923135709,-88.98579171550783,243.4862101668054,14.039124272710444,214.90028042874212,-3.7472868516324453,-18.78556221299291,14.572303135855538,11.320302824598642,67.17448404774834,54.581703023053485,0,1,10,Tracking,424.69149858467597,1,49.29400189423905,-69.16211443390075
1466,2025-01-01 00:10:00,38.38328704711138,-85.14128240813675,421.774883071802,16.699643563764308,291.6579923854929,2.583658789564737,-26.000410210601636,7.096914468613164,16.87084692999035,7.474590363631551,53.02104581990349,0,1,11,Recon,356.42688640008447,0,62.758453862881865,-50.72429787594602
1214,2025-01-01 00:11:00,34.6869315979497,-87.43223432279493,211.50394896582122,15.891022542083636,154.68241080785327,-41.90608274834473,29.91364839513772,12.253686893492144,-8.874783628565677,46.06849734821338,81.1396496681904,1,1,12,Surveillance,61.89585949175134,1,55.66107990879293,-62.59522262460629
1330,2025-01-01 00:12:00,34.14819502337665,-87.15127098038077,184.28198554688126,48.923071916491935,269.94957526377675,12.506671977595616,-28.51096731329105,11.707508455819127,12.20565025877032,89.08241315106275,66.60430696335952,1,1,13,Object Detection,81.61060599906324,1,40.0,-47.13034802526684
1458,2025-01-01 00:13:00,32.73407071930706,-86.92710035073713,482.97920761523847,40.37170027673895,328.6949280803482,-37.669750839795675,20.11464360953194,10.952322013074943,29.067810919760014,9.446242580108688,25.680542417807082,0,0,14,Surveillance,168.45965666760281,0,40.477560077261344,-79.2176341028967
1087,2025-01-01 00:14:00,30.563754966509272,-81.96974102167337,103.54531404538756,48.71045861078248,205.96426693999427,-5.848686509379895,-8.077989506960833,12.809665862844245,24.002302818713495,98.88757121375433,91.36896125528651,0,1,15,Tracking,160.44455320223744,1,40.0,-76.78125582424802
1372,2025-01-01 00:15:00,38.64722376255053,-84.60838723324746,499.12834227279126,27.589619460316342,65.08265420245664,-18.661041209933295,20.496927585468917,5.188983421361526,21.75784944319675,94.90693936454213,22.46264817901121,1,1,16,Object Detection,197.56974940791648,0,58.0734882450199,-75.01694236343756
1099,2025-01-01 00:16:00,38.12901009130078,-86.88692300843996,370.7285195429582,21.134739266506266,96.76714141087135,4.088515519054177,3.277229472668701,1.6929750716925795,35.477771421860126,7.827448072987586,79.87170849677945,1,0,17,Tracking,224.66470435673685,0,74.03385107303966,-59.05031573448845
1871,2025-01-01 00:17:00,39.997176732861305,-83.89666216689082,431.38771977964683,41.93172788836747,71.51204768306609,-32.99252980291136,24.097873769181604,2.3854334407948685,-9.098399508738499,93.3413320449555,80.70353141634503,0,0,18,Tracking,254.43536651739325,1,62.33362231586102,-39.2601913670012
1663,2025-01-01 00:18:00,39.966368370739055,-82.83849325776806,217.84775853847725,23.05015672164587,88.86852993446385,17.247906177598637,25.5715791848776,4.491647653078021,17.852379309611706,36.31325902594622,96.24888682255444,1,0,19,Surveillance,287.0903526371933,1,69.11651501527648,-35.59110448108087
1130,2025-01-01 00:19:00,35.55431705602628,-87.27375999266467,105.72611106682399,21.97533494821393,110.3095617663731,26.551038323562338,-29.45410912315344,10.003958710455706,29.367442420485354,84.47091670758626,24.33075267218566,1,1,20,Recon,113.38782276624792,0,51.43749037220019,-67.75946299695497
1661,2025-01-01 00:20:00,37.68987415180511,-85.86450898474648,395.14780742461204,19.300239688313248,199.84816323114785,-30.298099523115916,-25.475269440432704,16.808855010920404,17.06676913506336,41.83833377132715,67.74854886275928,0,0,21,Tracking,82.8754432545023,0,43.507025020278505,-51.281513788049295
1308,2025-01-01 00:21:00,39.44765729882428,-88.78113906663053,433.6578388002703,15.187159128969414,211.6769866069798,-35.61182213833061,-14.978476225748672,14.025866841767682,6.194777629018958,44.08551127025159,54.227245650164235,1,1,22,Surveillance,423.93000249943265,1,49.77741131699635,-41.58175036536998
1769,2025-01-01 00:22:00,38.49647390677411,-88.18850650465319,396.19045278140766,20.25852244067064,153.53990900707,-31.903606549137677,10.158924981810102,15.780812084040942,-3.1874717454011066,63.42430909775426,46.450636388763364,1,0,23,Object Detection,350.16080541526196,0,42.95417825045913,-65.55852850401956
1343,2025-01-01 00:23:00,32.47348101743198,-83.18882146035017,157.14011492033544,24.21278993895551,221.55148073550075,33.94148057086515,23.29633179069036,7.019512478521827,34.37815359080957,77.44774192759833,27.225484823925843,1,1,24,Recon,299.8378691988646,0,56.577128555871184,-59.549613163186336
1491,2025-01-01 00:24:00,34.505441353100935,-88.18561652304373,401.37116890278764,36.95976832582922,29.366973220091733,2.5370335580720536,-2.403482922362233,8.093074832971004,13.538119619380147,3.3789150948248636,65.01232957370473,1,1,25,Tracking,402.59756823091027,0,51.83519912851385,-53.8012898657143
1413,2025-01-01 00:25:00,31.29159415151495,-84.7483661633294,407.5691128430564,12.502593688778063,31.60376534093759,-2.946510359324769,6.418386976455928,7.8736377198122565,33.90575984928507,59.31559955271343,58.32325805396909,0,1,26,Tracking,506.9468798899119,1,63.83375352138336,-73.25625767959761
1805,2025-01-01 00:26:00,39.54051027258723,-82.90953738277567,363.41620626802194,18.420277586613718,61.85860572875704,-35.39593628078811,-18.69000883226633,3.8374636880900304,19.292606121658416,18.673299409737098,28.36435665208194,1,1,27,Object Detection,290.95417092275045,0,65.95136949572128,-78.70088531371098
1385,2025-01-01 00:27:00,36.0617463445088,-88.93123076905256,406.4463731182345,42.360945611667056,186.50789929452412,13.460040608126562,18.298010032901118,1.2243331628714405,23.709605830750036,34.594951786320294,68.99916056776667,1,0,28,Surveillance,406.2045111280689,1,63.27077692520025,-72.35970953408584
1191,2025-01-01 00:28:00,32.28642805503463,-84.32687780371097,438.36857587109284,15.87687694335083,77.03808433139288,33.11996327055809,28.03968668120818,11.818321856544536,30.2130577189225,34.79686661552165,79.03624962023508,0,0,29,Tracking,574.9290008709858,1,56.32854277725903,-48.65731893732333
1955,2025-01-01 00:29:00,36.71700684405857,-87.43437216298636,345.4416456949834,23.70580586090086,101.98238525732783,29.536728239110772,-13.884064025124154,19.784333668411723,22.95777723000672,46.906034022115364,81.38226408429186,1,1,30,Object Detection,513.3972277652429,0,40.0,-76.31908692331592
1276,2025-01-01 00:30:00,36.18128240457896,-80.3707312476242,135.44188558787164,44.5863568743256,144.11262102227786,11.344923808272114,-0.3104429039672212,3.3365940990052567,9.902742033946886,33.41364118761734,92.42985506099419,0,0,31,Tracking,290.0404376713011,1,60.27661887092611,-70.51518175749358
1160,2025-01-01 00:31:00,33.581627180328404,-85.16454353280075,295.0511238668844,16.197012445737705,292.27180464373674,-38.22491550134937,-24.833033369617574,0.9336963979854751,15.681669196432548,10.736111845066777,52.75765935110218,0,1,32,Surveillance,408.1470924199612,1,75.30986691627041,-63.107305715234816
1459,2025-01-01 00:32:00,31.135575921996292,-81.94007450224842,131.059733868642,13.309473424727596,4.990368928629643,-34.88426755415883,3.548199387778105,15.590633636478659,30.15227623379399,14.562873852545144,96.24582148977096,1,0,33,Recon,155.61829783460746,0,51.788578163655984,-76.10649678468168
1313,2025-01-01 00:33:00,36.71573195592799,-84.49773457843739,263.0172124129723,29.381519803200433,233.77637528518406,-40.56219116011578,0.16700651080083162,5.051720133694484,8.68251481864921,3.343798556109767,89.23435240661489,1,0,34,Surveillance,362.68197984334853,0,64.1292350716723,-70.41503644191828
1021,2025-01-01 00:34:00,35.20307700903793,-89.56587467145181,262.84259565025104,22.096780451141456,240.79555117464673,-21.82687051567776,-21.333810950695344,16.59287610705857,9.406072838424855,47.02490853287543,43.72012568191512,1,1,35,Surveillance,589.9172772147591,0,40.13787012850364,-34.436510550824444
1252,2025-01-01 00:35:00,37.723183917356394,-83.66848624405978,126.40393765609663,32.53633457935416,287.51608092838916,-32.790467955566,-3.476027212915497,14.078733340690308,-5.215494197099942,95.44476948529885,32.74264298795668,1,1,36,Surveillance,339.890162209362,1,40.0,-79.03504338865076
1747,2025-01-01 00:36:00,35.20163501111993,-80.48596657793343,239.52821358779173,42.152195619339004,335.79105806171276,-21.59567637728095,-9.953720874806205,18.91347074101609,35.72922176108739,11.567522364811655,54.83115169024107,1,0,37,Object Detection,560.9246815626796,0,40.0,-47.32840379128189
1856,2025-01-01 00:37:00,38.5218150031854,-83.98388179853669,144.39923951652594,15.485939526109727,7.249625621744338,-10.344774985293448,1.3098525183113594,8.178544715133441,-5.448184252727914,94.6264493003082,52.15189663647733,0,1,38,Tracking,279.96085707176076,1,61.115130470325994,-60.779553454240755
1560,2025-01-01 00:38:00,35.51906838774485,-81.80811140573209,423.29408400368885,33.227963382171396,55.362133984757826,39.86845056640222,5.139260125727951,13.239396789012684,22.410458872427796,73.33615147320936,66.05754442649635,1,0,39,Recon,599.3762066797009,1,43.512979173538575,-46.36756302838144
1474,2025-01-01 00:39:00,35.60937971535386,-81.15793536651591,479.0752103857883,30.220350415594556,319.0216658601575,9.933845380352288,-29.490265283567428,9.297095616265414,10.659723940139884,63.74988029341632,66.67089858621983,0,0,40,Object Detection,372.77881902288124,1,52.96272341829386,-50.56541398182977
1058,2025-01-01 00:40:00,38.76653602658345,-87.71920228051067,128.92659010317544,15.763151440527983,165.06668238732553,30.147640711466607,15.66035897697332,12.61177394617087,10.280969512772117,64.52777553235629,79.99895875039802,1,0,41,Surveillance,82.82525688740466,1,54.89477226243406,-68.8250622822678
1510,2025-01-01 00:41:00,34.03482866212397,-87.87955160091774,482.0460829166806,34.9599394211593,203.25263001604685,18.931635064109898,12.780857511704447,8.991978120154746,23.977591828634196,82.67276483962821,60.791195856448816,0,1,42,Recon,376.8475902133496,1,50.61519363475573,-37.63952562133057
1681,2025-01-01 00:42:00,31.340152284506406,-83.89019011149009,309.03063973469807,20.945616714430866,238.68979334033307,-34.874718252603145,-8.022816827608668,3.7726449284814967,-6.645313368506064,10.691986437982138,28.385811275261243,1,1,43,Surveillance,208.2692556669822,0,64.8204829133477,-55.402980869532165
1475,2025-01-01 00:43:00,30.28782676313339,-85.88971530193295,219.82627118154954,29.5133727417605,244.46397761842945,21.23283657365539,-26.823843865870906,10.157948320067618,19.68528914757173,50.47543235655417,88.6633068442485,1,0,44,Surveillance,77.53991389938315,1,53.79374767340937,-38.87319905432641
1699,2025-01-01 00:44:00,37.55137255673619,-81.6013869713328,130.74483011046541,13.290892971082474,335.42654519394296,-20.2411006596788,15.295952387103021,10.571684028748846,28.60158929861774,69.70911382607585,44.78116665481497,1,1,45,Surveillance,503.2607845351182,1,56.689302122442555,-59.69937319058904
1975,2025-01-01 00:45:00,36.20309551353465,-80.99976876601988,300.24970722816715,28.383362288544923,358.90179026820107,12.519706229523571,27.310509628687946,16.21207696520322,31.41063789432971,58.682044507356366,97.70379682452736,1,1,46,Recon,208.8940039696082,0,43.154544607773836,-30.765722304238047
1782,2025-01-01 00:46:00,37.040797680992235,-86.46578620697282,417.80621779629945,22.258538721712814,259.2566859351385,-14.313422372131033,-15.590904238679148,14.710414115871624,-1.4734805303112353,83.27790710232946,29.428808694381612,1,0,47,Tracking,490.1362191851092,0,42.3927832768385,-41.47553207493519
1189,2025-01-01 00:47:00,32.129641615089106,-87.63129441025518,382.83459090667924,42.895248447414176,103.39963531385429,44.79050369381933,-10.588523175777727,13.275832478828882,34.87095250390868,7.22717090113515,96.66009377860026,0,1,48,Surveillance,215.63749479616817,0,41.66672019649518,-31.702489744371327
1957,2025-01-01 00:48:00,31.363714755867697,-82.19474484756138,120.09040458558951,12.279149079894731,316.7108648259637,-21.280366845289997,-18.971226631091103,2.2677419110514507,22.807304592372112,69.0701039499166,27.280944550601358,1,1,49,Tracking,164.93623109183812,0,72.05303609300987,-54.283676054507055
1686,2025-01-01 00:49:00,30.145446656678818,-87.25193964451864,129.1607341471614,26.7442909967332,17.719529234674177,-19.87825763031573,4.6161674006903795,14.4123258132743,34.09274004103414,53.40277303847177,38.48289103576476,1,0,50,Recon,585.9252100163908,1,41.651491978661284,-56.315443385464974
1957,2025-01-01 00:50:00,33.50587558806597,-81.77385681486322,261.1493130530548,28.33725696525752,83.18910703481863,38.76050300061584,-20.709516321152705,10.006103127090295,14.264035855509913,37.91608639799434,23.726395366923327,1,1,51,Recon,255.28847698771057,0,48.19180479988298,-42.227309533737106
1562,2025-01-01 00:51:00,35.899176868546334,-85.76261746351237,218.1161976191773,39.000243051964745,323.0588582869374,-42.78200358273096,-8.628363392317233,17.881990722123184,17.1016672548601,34.027498223403086,76.4090517311196,0,0,52,Surveillance,384.74315417930666,0,40.0,-35.985436849328494
1875,2025-01-01 00:52:00,33.92244045099732,-83.3245010070853,192.95372922241913,32.97150300360844,92.22894519816778,17.70200890858772,11.820780836055775,18.397418682610855,35.95191385143356,62.083263277419285,88.02389892574334,1,1,53,Tracking,389.39000611981464,0,40.0,-31.7927102067221
1566,2025-01-01 00:53:00,34.37474922023729,-89.04464686165332,212.40179956348544,36.688493487767246,79.43438146382945,20.27937516622903,3.606958980560904,1.1031318120357092,34.99547716773359,89.09953746442648,54.725686545278435,0,1,54,Tracking,362.655680373691,1,64.92205828657279,-63.77240469837501
1243,2025-01-01 00:54:00,39.041586944937485,-83.76140675323427,421.39309731875386,41.08197142607025,49.725105530489,30.274071966935935,-6.812246140323886,16.412831207089575,12.408043668450102,49.61759261011153,94.28176600339438,1,0,55,Surveillance,553.9357015014559,0,40.0,-40.06477130786806
1831,2025-01-01 00:55:00,33.482554670233,-85.4823232126277,471.69122145274156,44.48811894632755,309.28023275288996,42.69953795746278,-4.785023891547485,0.7539478084534124,3.7206315817840867,82.47231640769202,67.22392574044797,0,0,56,Object Detection,424.198178538109,1,62.97043748397421,-69.46772011822317
1504,2025-01-01 00:56:00,35.13989489159811,-84.13391536824525,262.0410778110266,22.55501986889882,180.0209733087912,42.80417272409872,3.7266529573937675,7.343392513900453,9.65852172821321,40.21563818439675,70.40057083572185,1,1,57,Object Detection,278.0158222166623,1,61.07576212132186,-52.72128266272774
1130,2025-01-01 00:57:00,37.83653012741143,-88.31985792255136,462.44440085299885,31.52090821455612,242.96155309949572,-39.12509181901825,-29.64811632677032,10.845999512421582,9.388216426487485,10.239446279317654,87.6335361360616,1,0,58,Recon,525.685407643108,1,51.31090048148493,-71.00759257954005
1484,2025-01-01 00:58:00,33.9654278232127,-82.63126255055818,228.5982804991528,43.604323137567995,86.06389826701069,28.965539047761226,-25.28940789278341,2.962015972542549,4.343343749139697,6.1505736458638545,43.74401640414711,0,0,59,Recon,157.77396552262078,0,56.64820812654561,-62.63013191248306
1818,2025-01-01 00:59:00,36.22086700227874,-81.37202922456771,290.57479453751665,49.57804523860226,272.89455156403795,13.167894029164316,22.875484065780697,14.926276251381536,3.4289802166483287,5.1334371323677574,48.341257706210065,1,1,60,Object Detection,353.88784910962545,0,40.0,-33.43208163967704
1646,2025-01-01 01:00:00,38.62363708746745,-87.83260199909225,190.4115991263999,45.580772441750526,273.60199618635545,13.260792093578203,-25.327260654522554,0.16709408344277143,33.05314682398597,38.015014195766994,92.47615353557154,0,0,61,Object Detection,573.2972008496284,1,66.12304096579635,-72.69546501134569
1020,2025-01-01 01:01:00,39.49520623657642,-89.04285444479838,356.1904168703376,24.858690504975073,112.53528896698805,-33.44850660467747,12.408215772630307,3.3719809686807367,-6.506903965766916,33.72377508358421,92.0770796831011,1,1,62,Object Detection,397.71472013542285,1,70.03440077846109,-48.379955243240175
1840,2025-01-01 01:02:00,31.47073480929038,-89.76361413953664,491.59244606992354,17.806660688746017,147.84574788370182,13.5168449801088,25.202289846543152,11.615936597069513,23.88055910497971,71.79370236225695,98.11862209606967,1,1,63,Surveillance,501.16296325643316,1,57.67665867109494,-50.352286353629836
1166,2025-01-01 01:03:00,39.26587625161494,-83.58028499556734,341.39723841735145,29.575701496263548,75.4884998748723,43.4234322541123,-13.758983741896134,14.287751240745848,-1.3589974271773855,74.28215015848659,92.14706531533369,0,0,64,Surveillance,412.92279179440413,1,45.851353301909896,-73.96308236455067
1273,2025-01-01 01:04:00,34.92116293079538,-83.9290596391122,243.12563364541955,39.66565807344169,351.56196839624556,37.06367125855023,-7.770513776429144,18.332862053878323,7.22529466970316,5.085396883373983,30.189762882668873,1,1,65,Surveillance,513.2602663104608,0,40.0,-63.70104781155939
1387,2025-01-01 01:05:00,32.58244388298958,-84.5330258728593,359.12697839621137,29.702762830131903,232.4169277410282,-5.47824052756345,4.13528435068298,14.109933038692477,-6.922848293258157,22.112326288901496,85.89794289095899,0,0,66,Surveillance,570.0234551164315,1,45.51854679664498,-51.85092477423672
1600,2025-01-01 01:06:00,34.59135756238261,-87.68052903884025,149.16827138615503,29.32723453254674,336.4357970575856,-41.40468240425151,22.902538178315083,13.435585405097319,3.4986818427731023,27.42618501588997,52.78707824876753,0,1,67,Surveillance,207.37773286767788,1,43.74391974840873,-70.64106955057548
1315,2025-01-01 01:07:00,39.800325752854775,-86.09094004094486,455.4636321061595,43.529216843272025,109.21879570648794,-12.393585899981566,26.51433523562521,7.886822927013286,28.42105355586211,54.76119841428094,99.26410847567503,1,0,68,Surveillance,151.6169838786282,1,52.388156571904915,-39.96881717935923
1013,2025-01-01 01:08:00,34.9261809399287,-84.05523664813828,301.23358031193453,24.456151162687455,281.4807286788803,29.375128044049973,14.37379488667608,0.025688510536028275,34.25076622736293,14.451522390695025,57.78247714630409,1,0,69,Recon,321.35500517957155,1,73.49879511221462,-31.392174523262504
1241,2025-01-01 01:09:00,33.28751610287508,-85.03233141140831,279.7398968158568,44.391786992465825,275.70911179850714,18.13491913186494,-24.802814348718357,2.403185174712439,1.0763575951183526,13.394121940000037,64.30688660017765,1,1,70,Tracking,439.0057104850766,1,59.42842481435997,-69.2620300018764
1776,2025-01-01 01:10:00,36.33400854316726,-80.12214479785112,334.3459153814077,26.272192038068944,248.99603467195496,-3.6590709965439245,10.149249332091046,10.691090895120784,13.177391962946093,94.3788889207958,62.38199322054388,0,0,71,Recon,182.6832767183967,1,51.71992151277835,-70.6544017604712
1345,2025-01-01 01:11:00,32.40145618778193,-88.63560247443267,349.913545115761,23.129324227133576,347.6300310960481,-40.0408618357052,-5.381776687640276,13.502597716888394,13.516202396860319,80.4202907297781,45.73896238866222,0,0,72,Tracking,62.21478323229022,1,46.00403869152265,-57.25324641012777
1564,2025-01-01 01:12:00,30.758633281086638,-83.04855445952407,128.71032249060522,28.15959644798796,141.6799209982736,-6.579474495902765,-1.7579400305363038,8.34896567792925,33.67876528798671,18.06549020911703,26.001767111433452,1,0,73,Recon,245.1849625518209,0,51.82244713129087,-42.61173614299839
1897,2025-01-01 01:13:00,31.288797219106492,-85.95681231895708,373.046888489361,40.49787834699474,47.05823649231262,-2.787755425390486,-27.05109657928938,14.613580230567804,28.139952643790274,40.6567807905491,91.65209843215348,0,1,74,Recon,583.1840411526058,1,40.0,-65.91996948823743
1339,2025-01-01 01:14:00,31.280458389577724,-85.71800385074386,196.77267212621183,15.040081114559772,241.81518932786187,38.569997960472236,-18.53627163921851,10.437245906643575,15.653860918402493,35.56219992575655,84.21406500210294,0,1,75,Surveillance,435.2824287271572,1,60.02687412964326,-79.00600456513598
1091,2025-01-01 01:15:00,31.519026935122945,-82.82402234341824,385.58105300263594,17.856768634880694,262.55152817179425,12.697749322394351,17.430816452018867,1.4835239118862442,23.53736002358867,79.10040740654073,31.162142444773544,0,0,76,Surveillance,276.7157397282609,1,71.22078210326451,-52.9389685983553
1366,2025-01-01 01:16:00,31.3882717264941,-83.0756384867563,429.0139177536787,48.057793026523676,207.02180644517327,-16.9512375010816,-2.7624700171284147,3.8403250193589766,32.36775269546834,51.021291647812205,82.14146170800583,0,0,77,Tracking,163.99109256729378,1,56.50459961882079,-32.16997161163462
1955,2025-01-01 01:17:00,36.408747448032145,-80.08744006297812,421.5834030210081,17.019665095254297,74.45444152802266,2.2786438005649217,-11.90026550213107,16.799964464878858,-9.523052298722753,12.784973699346702,70.0677332840488,1,1,78,Tracking,252.28842382756338,0,44.897011851020004,-60.43615722965272
1454,2025-01-01 01:18:00,31.818800843991447,-88.71605710545875,321.0003869631556,32.709092717242186,181.60413900096793,-39.055022296005596,-6.95885556210251,14.49825493248879,10.14450155250243,73.89920631562438,52.73150303340978,1,1,79,Surveillance,151.7132939826739,1,40.0,-58.99327229084498
1427,2025-01-01 01:19:00,33.456672833238635,-88.95890350615834,308.06795692430046,33.17257866647751,112.38830516488659,42.53114120847631,21.263970799540814,17.8952397402499,35.362158363853936,39.68879782249189,40.32169192764502,1,1,80,Recon,117.40514350899376,0,40.0,-31.554914144298102
1508,2025-01-01 01:20:00,38.967884099060115,-82.7566118287126,157.1503845357647,29.58497848200979,153.88795014000806,-12.594608826234662,14.939941044297413,2.3511449824187314,27.015651542197567,26.292424763214704,88.7783026801786,0,0,81,Tracking,549.640881189179,1,69.3830510621755,-45.26961941866358
1775,2025-01-01 01:21:00,34.73961640262873,-84.2161308299359,410.1384601612542,35.78980994307274,232.278687304079,-1.9919380578177766,-13.661076169135033,19.80445069230148,17.142068716703733,37.54986220207201,76.01506074352424,0,1,82,Object Detection,598.7311827227558,0,40.0,-44.04140385789374
1942,2025-01-01 01:22:00,36.675577385210275,-87.25839333440194,208.56375217868575,19.193069031904738,268.27730736870046,-13.024442318676968,-22.9498895872576,4.188134278998672,16.482226351756672,49.77565636068964,63.81919275753095,0,0,83,Object Detection,148.62179738172676,1,68.40911620180337,-51.86489973144662
1034,2025-01-01 01:23:00,31.7231987120163,-89.20580631011013,298.67816912717865,32.106490711069924,83.60088872448353,16.426055710458016,-14.880106701355697,0.2355975257328402,7.388504880221888,34.311551641700945,68.76548271187713,0,1,84,Object Detection,89.44218179427105,1,70.35210786418706,-31.26953945683792
1205,2025-01-01 01:24:00,31.922890188086708,-89.1434175040357,213.70963717100668,24.886930209875885,145.9171298329032,14.600894249663376,25.24538706328402,19.948458781071082,16.026026682075727,24.190577259175782,27.28529456657448,1,0,85,Tracking,238.05479785895466,0,40.0,-45.556675778722195
1080,2025-01-01 01:25:00,30.40868616266479,-81.05809125335881,153.53134519987725,36.46669038516756,96.89816555698651,19.379007947622213,4.895330270985319,5.621477708902263,22.769159973172663,39.85020288039804,57.91358087289535,0,1,86,Surveillance,309.2959576111643,1,56.31505747690123,-35.248362419741525
1931,2025-01-01 01:26:00,31.689350630721645,-88.08132675281257,351.8230787566946,15.648941734925979,71.50738099027288,-20.867109334927125,2.0088125246869737,13.360389050251198,10.918151921439655,1.9172910749898242,35.49602342285616,0,0,87,Surveillance,170.60347342096142,0,49.00435337432022,-45.03105671333894
1561,2025-01-01 01:27:00,32.78590339031959,-86.76628437884479,121.73281392916152,32.835096673579045,282.01939919850184,-16.589836695234062,5.78361598154769,3.533646283526104,25.7076573196087,77.24978460963139,36.67069432070603,1,1,88,Surveillance,222.76945237122158,1,60.182228528228876,-43.2442087579802
1871,2025-01-01 01:28:00,31.770104842767466,-87.73343597773012,399.45809365048,17.410814215332948,327.33096999731725,-33.72738920134128,-8.038304055209085,11.604570643982834,33.061611363019296,17.09448935675858,72.90431698294934,1,1,89,Tracking,168.47019727349516,1,55.3758833026628,-65.47945389288768
1387,2025-01-01 01:29:00,30.887025337570556,-86.45003694168062,227.03471810444665,21.145722524601457,133.28358684644763,13.995897466150133,18.426421219170763,18.080699729091187,-2.265757590756942,4.390461363063725,92.90049214674305,1,0,90,Tracking,478.1007069535237,0,42.55578849419119,-64.82606509930905
1001,2025-01-01 01:30:00,31.206358711006008,-89.30576157253907,100.05387720179412,18.748392012943327,270.46041277455606,-41.41825853979127,1.3971749580149897,6.403623348568772,12.577351140871222,65.36986929050792,52.300528838267724,0,1,91,Object Detection,444.7920893535208,1,63.048610180217565,-40.85076752119854
1389,2025-01-01 01:31:00,34.607787680327256,-84.8094020909173,304.4516556948919,17.313511194752685,322.91830417118797,8.791410197111318,-22.995125833872265,13.405079520887185,10.401004564254055,77.39361288236722,36.61994184097523,0,1,92,Tracking,402.87381851093016,1,48.19507954494681,-65.16468554150502
1565,2025-01-01 01:32:00,32.06333718405793,-89.32387436407785,118.74076341104126,43.02843806242668,304.60471579088335,33.27262963664705,-22.256092510256224,3.75807177596833,24.373240202486407,81.38291315928431,71.89975497893234,0,1,93,Object Detection,269.0976428227706,1,58.15961291474323,-51.861496459923416
1105,2025-01-01 01:33:00,33.64269861048076,-81.99643492177638,210.46782312835978,21.428302706435613,65.81281987412133,35.17489334606702,2.211548790157103,12.495907974374505,2.4933732628964673,49.35091826605999,89.69496370802543,0,1,94,Object Detection,550.8821083096874,1,53.26352906883574,-67.5323844546649
1771,2025-01-01 01:34:00,35.03417270854857,-87.66287918089567,382.79059498228645,47.084951274577975,344.2650773448101,-4.58660156670345,26.19421308425035,6.729007036350203,22.012545747613814,20.53681846899853,79.86550408979926,0,0,95,Surveillance,583.5475724289108,1,50.98606069899053,-39.15083095954653
1821,2025-01-01 01:35:00,36.903948286293655,-84.5998808539549,125.07584864874634,48.797061013807635,135.6035185546065,-3.662668060823364,-11.498872699428077,4.224165171759033,33.874462086574404,73.72276772498267,89.50057844292698,0,0,96,Tracking,153.76522881772246,1,56.10319699387081,-74.4749324386155
1476,2025-01-01 01:36:00,30.39312139841099,-81.19920912438542,435.73539694240094,32.8504187974839,122.12663802258108,-38.072773529278436,22.172470131553098,6.263641014072703,10.906579989681134,69.97130771543371,62.92437368086395,1,1,97,Surveillance,180.42682636241415,1,57.33994594119903,-38.52766801191678
1702,2025-01-01 01:37:00,37.994103989090426,-83.49122630952806,101.52796906343325,15.720044906629056,22.47527782000092,15.368852289873217,15.845735194732761,3.576821370155987,35.550784998961,24.627073410317323,80.15009954953527,0,0,98,Surveillance,343.8407551201996,1,73.00134476132702,-49.86350997461991
1401,2025-01-01 01:38:00,36.27900389490908,-84.67042213448664,198.7295476807609,24.98192973518325,175.02251547775788,28.913347833556088,-15.131253425585589,18.038322156757655,39.65818694667392,90.34077558627929,31.205164748714918,1,0,99,Tracking,109.27530741241245,0,40.0,-70.65452325864614
1729,2025-01-01 01:39:00,30.81759031948872,-86.75666246884624,396.3616224608286,41.90929053392856,39.24490163073433,-22.981045085575825,-27.819555101025454,7.943737726342577,-4.695397502602397,10.4371458082829,47.86196922905532,1,0,100,Tracking,295.6821353644809,1,47.9440762032561,-52.89823072469409
1555,2025-01-01 01:40:00,38.73578624106777,-86.66998086941803,226.50805989172272,24.69562914788282,89.47433553387336,-7.082920652997181,-23.889164091457037,4.905586099487347,1.652659399242932,98.26882395913256,51.16393315852179,1,0,101,Recon,374.1672829799635,1,62.95740654293608,-65.87505815763298
1161,2025-01-01 01:41:00,39.20872400531813,-83.3051304480181,140.7569552264054,13.480688732111549,114.0993438362213,30.495540308874325,13.709636030846411,8.968156820318658,37.518987574104656,86.02478109774646,60.90365969968276,0,0,102,Object Detection,341.91972841415986,1,61.41370796327518,-63.82663326347517
1201,2025-01-01 01:42:00,30.61077959854864,-80.05860638778833,244.09356752017115,32.27139643712752,291.17747645700626,33.94084208960592,-18.019815717561197,6.4107233361299105,37.91638432406934,68.78986454790751,94.3261088205459,0,1,103,Recon,238.69063486213406,1,60.475465991231005,-62.423597920155984
1957,2025-01-01 01:43:00,32.76877648147204,-83.38160810150622,208.1573145538102,43.80483405984139,315.17591414252274,-23.113801776219667,-7.723744769676372,14.88838507626652,-5.114636230662075,93.87498882798329,89.94372481777394,1,0,104,Object Detection,352.9207352816917,1,40.0,-76.83403765138395
1995,2025-01-01 01:44:00,38.06201279793061,-84.42216582629975,437.08476086422195,41.837055485740095,108.88787428612909,4.551357108722783,0.10194996038548965,19.424398237709887,-9.250074981143166,72.23111683237077,30.762039383134763,0,1,105,Object Detection,577.7525152997778,0,40.0,-30.70191577992913
1269,2025-01-01 01:45:00,37.48259690383658,-82.69349489760754,225.33916703405725,17.00492560521413,309.1313236480466,-27.675616442775564,13.528090107009767,8.760673133952936,-1.944998837178888,19.045699703004594,33.82317215059706,0,0,106,Object Detection,171.24939831734306,1,57.35850814454676,-78.42326859343879
1862,2025-01-01 01:46:00,31.845210193563773,-85.34794387716282,415.5729887104029,36.910584576498664,308.60313745312476,-35.83091122743991,-23.20612660445248,17.220667999444807,39.800639169112415,44.21561381128117,48.611243967112905,1,1,107,Surveillance,413.60893353276197,0,40.0,-46.87515634078608
1815,2025-01-01 01:47:00,32.093493233367106,-89.39857657399214,456.7488579242939,18.820170537425884,275.27434213855446,37.000845125276186,-5.618015683352311,11.31726147119239,-1.0000191694656575,7.150302433163535,43.25950927125391,0,1,108,Surveillance,83.434214844268,0,52.281342716027666,-61.43861761212847
1270,2025-01-01 01:48:00,33.70472102791382,-84.3770318412209,273.52696783061185,18.72830138208689,52.810241045465354,28.84567538088983,-0.8956254514382742,3.1447133018846696,15.127380336101158,38.96574222881154,69.18167625250098,0,1,109,Tracking,95.86485841997487,1,71.2645903304373,-47.69948545266505
1455,2025-01-01 01:49:00,34.84522985191021,-80.4237471549462,463.9772575417568,44.96287093220741,248.51622488426244,23.40314116228565,2.449623838292382,13.812454841626831,32.42088632152555,74.16030197372086,92.2220838211636,0,0,110,Object Detection,357.9872410807359,1,40.0,-62.18758734562081
1461,2025-01-01 01:50:00,36.18254771530296,-88.24697057642341,250.92722158527715,19.986758109609205,340.20866324900476,-40.61103130681736,19.101638483713003,10.268689942516403,-8.979919465589683,38.644335093081736,96.98332333380694,0,0,111,Object Detection,116.6671573770927,1,59.16757339354328,-46.312467687057065
1726,2025-01-01 01:51:00,33.68913639569772,-83.09995109179334,485.6313665960433,20.52989386072045,245.71457235617655,30.93559134392318,-19.699308297406986,13.01213046504207,20.224449112922976,33.02941754681341,72.28823620281813,1,1,112,Object Detection,72.06726575050295,1,50.93961575983745,-43.53822452658196
1251,2025-01-01 01:52:00,34.625347161331476,-87.99066311340944,135.7158098102292,10.026135630451982,119.38206567882023,-5.576033168515465,18.469887109597337,17.7937482514333,3.851272443481216,59.53557225103119,87.05273611208693,1,1,113,Surveillance,152.617018729932,0,48.1047092931161,-45.47236798001776
1701,2025-01-01 01:53:00,37.47470938133756,-84.64172315526919,374.80770660129707,44.82676136502071,180.20855427509926,-14.184438903372634,11.572705661799134,8.808691413120922,33.11674582198658,87.2204528998895,62.01617601846377,0,0,114,Tracking,365.01855233977017,1,46.170854093094185,-74.30190093209238
1295,2025-01-01 01:54:00,30.36683202890598,-89.03323550353281,297.5256161827715,41.70379252836539,232.4610156063793,4.182872492283877,3.35224885193756,18.023552464347112,4.173057463203959,4.7583192546112425,36.66615574880318,0,0,115,Surveillance,439.8041154402235,0,40.0,-47.15533826726577
1724,2025-01-01 01:55:00,32.52436944344021,-85.49629063741816,255.05952218225883,35.09315740362712,183.8053471422613,-36.77820815487998,11.971672224154318,15.013380285633097,24.337786014095443,38.54704346997354,61.97507296747819,0,1,116,Recon,169.3384246363452,0,40.0,-66.00062252729514
1719,2025-01-01 01:56:00,37.13349585884552,-82.43836671104754,353.08475149944036,40.01063055755369,43.183059023149134,23.09818944171589,-5.278935662900615,9.772098517559694,23.710981622369843,15.82407418152627,64.40660811501209,1,0,117,Recon,420.8600960924142,1,46.891148497604966,-78.55993147153332
1748,2025-01-01 01:57:00,38.95206837687199,-86.52428475761018,381.5428366537325,16.081942696979674,112.34305607472743,7.41915691994663,-21.696144841912528,12.064442713159274,1.0746774429820007,69.53542507318696,79.39660513708452,0,0,118,Recon,158.53721879358386,1,55.769803738900066,-59.2584664055523
1337,2025-01-01 01:58:00,35.11677442115666,-83.35088275512783,101.74530786012363,28.33294378350302,288.8625709993077,-28.206891281414922,9.94591441592204,6.511622650380229,-8.260040006582495,10.572456043113487,37.59063917658793,0,0,119,Tracking,391.26701038087884,1,56.56934672514682,-58.32284485980995
1878,2025-01-01 01:59:00,35.32113485265316,-82.04550039210271,166.78123549887948,24.048775493951236,310.1104965943863,-28.059102020785897,1.4803384011373346,19.671945994775484,10.462478689269865,66.48077585802446,49.46483056693854,1,0,120,Recon,282.4582271437314,0,40.0,-56.64129333237767
1052,2025-01-01 02:00:00,31.07172011339776,-80.72822180520548,385.21842025372746,13.75106105028066,49.428011777605285,-28.41762135845932,8.362488032566532,13.34702326100792,4.459657598293486,28.618087079790733,49.122197537165306,0,0,121,Tracking,413.05173504015306,1,51.342642706560355,-44.75879173046419
1791,2025-01-01 02:01:00,34.47412366823455,-87.65357918144547,366.55416543128257,29.445219408596962,342.85923086354086,-39.86978512032594,-9.720073138290598,0.8769370499325979,30.44888748068543,19.89168137372247,96.75516765929319,1,0,122,Surveillance,597.3284863387935,1,73.19903296176564,-64.55780954287704
1921,2025-01-01 02:02:00,35.32617266455023,-86.00684084190692,486.4190020514709,46.829586013705416,118.37614242549935,7.901860443451632,24.411994640390155,6.532438114960176,30.018209422767264,93.63525578249853,55.51559682613751,0,1,123,Surveillance,566.4211612255835,1,49.071890445840694,-64.23597434480388
1216,2025-01-01 02:03:00,32.4247050363473,-88.47583986669582,404.4151161003132,11.60236476202778,238.4329459430592,30.631335982965723,5.2421921145346175,12.46628867518115,12.851197609631274,1.8524576745955867,80.40751738385171,1,1,124,Tracking,62.31214923149596,0,57.30699200700898,-76.97238718793697
1763,2025-01-01 02:04:00,32.69243230949381,-80.07516497841625,480.3090830925352,21.658436539751754,270.6570525444052,-43.425160741135024,-24.875850942547572,1.126665555984796,20.325611266160944,43.777727188956895,80.06491050995513,0,1,125,Surveillance,538.1369327556451,1,74.92394166915004,-45.658939200385205
1187,2025-01-01 02:05:00,33.77284163104623,-80.72999032075705,381.01620061392276,18.30163744822814,292.30064446963803,-40.58958195258538,-3.0117605577342808,0.47768382638285534,20.21297579934626,2.162699246179378,41.24353478425931,0,1,126,Surveillance,95.90502939437393,0,74.01816710154614,-51.6086954300208
1379,2025-01-01 02:06:00,30.200711977777264,-84.6004286971944,219.22088345577725,19.525866146627852,340.4698928013348,6.549324901825123,15.381363284618061,9.000484790556051,31.35790742138117,48.3593048104329,65.74957514973858,1,1,127,Tracking,574.6451565263162,1,58.81105486054783,-62.5287443653106
1492,2025-01-01 02:07:00,33.22079165583178,-81.57966705623579,142.14596890034258,46.337382075175015,112.65103729037614,28.754611684744717,17.64807370393634,6.6538035938534,11.250120706159876,50.10473777944182,91.54423146549185,1,1,128,Recon,212.18586671382974,1,52.678124921254884,-44.74055105413227
1040,2025-01-01 02:08:00,32.114480069965445,-84.79042022727958,412.72954533797423,28.722762169371606,309.06232363855963,-15.593499848822976,-0.32417683417447307,8.765972160663317,3.7723339895254533,32.1662471394747,58.01581755655596,1,0,129,Tracking,266.2988084220863,1,53.90825634964315,-53.132112538656145
1156,2025-01-01 02:09:00,33.274973521779145,-83.7641431199724,357.6596885903664,28.65197651759275,47.407285237034536,-13.534704107305007,23.684854249878065,5.253866197600104,3.2517459070273738,13.216177752502368,95.60940058740368,1,0,130,Object Detection,109.48463079489304,1,64.72721940474379,-56.537752706473015
1014,2025-01-01 02:10:00,31.19762131819251,-89.10875567883983,119.2744049573185,40.42302569821129,253.81472628729338,8.671184774709836,-13.939893768342145,3.2943549388596183,16.809613964110206,37.63875377344753,37.156658345932925,1,1,131,Surveillance,120.62728949761117,1,56.91544310776841,-54.43377281694367
1812,2025-01-01 02:11:00,38.90527280739895,-82.44729579503192,244.02018636039134,16.17968816019703,267.1119826250349,-20.320839978826772,-5.364078165704004,13.782867139606754,12.45741013661063,67.2262939932566,25.93272846192246,0,1,132,Tracking,452.4399052238326,0,46.937694486880225,-48.18259373664718
1064,2025-01-01 02:12:00,35.93592453554049,-88.72286516364765,482.71992619371446,29.490614164002032,243.98036683247537,-42.605247053008426,23.9158146341382,10.29142232535601,12.00603854924681,78.23958086444591,91.31630985157994,1,1,133,Surveillance,569.9394073040775,1,53.80347925244496,-46.99986977127003
1856,2025-01-01 02:13:00,36.79102319144489,-81.73932369747472,300.1604582840805,27.19940856484239,90.83330500865507,21.17056662914365,23.775402988294736,4.003084224987337,-5.443133045514639,53.07506023881423,87.81449583697733,1,0,134,Recon,389.80418727532714,1,67.17557685130186,-65.55210904296415
1838,2025-01-01 02:14:00,37.89171238607338,-82.17971912329614,273.09165440788183,33.87642762186624,314.2955329254732,11.30849216473078,11.142766129480854,6.391788525199966,25.93018703450978,58.98343944397556,99.40719007470759,1,0,135,Surveillance,446.559008384478,1,60.218928146137706,-72.96283183044234
1520,2025-01-01 02:15:00,34.984421989290574,-82.91255302257024,283.0798420637176,49.98230813001754,60.7890468133422,7.268039915009318,21.53883282733321,11.836158153266519,0.6868343990955346,20.06163711246527,74.3514790489941,1,0,136,Tracking,471.46366208246286,1,40.0,-72.16829094047407
1343,2025-01-01 02:16:00,30.869202880874237,-89.63839619475237,183.55308960206548,40.77795576328188,19.3085249474991,21.751571609264076,-24.67360398262604,1.444586965449557,-0.1523184895639318,28.733033322764946,94.93503413337196,0,0,137,Recon,201.9197082585885,1,66.21535160079713,-48.03045570484991
1128,2025-01-01 02:17:00,35.37106541818548,-86.96871644054671,247.4828683459181,25.91462812069709,258.2873966202884,15.770775380583373,21.899698572466576,2.949060185323591,10.637916013869674,16.18956100523584,86.15592200672887,0,1,138,Recon,84.42400069691607,1,69.76015776967716,-36.3563357116437
1647,2025-01-01 02:18:00,35.86841118020879,-87.36887430089158,247.92530239487064,43.10212209096188,171.17125748378413,-26.470621063951096,-10.762805606986394,1.4649120821478023,1.3889170808900708,24.929535000461133,87.55410664960695,0,1,139,Recon,61.011281716351036,1,64.27452545518415,-59.52518608272241
1471,2025-01-01 02:19:00,37.4543947418433,-86.39863592528481,120.94200807498896,16.828334532499206,305.6752871851234,-13.276705775098396,-19.30010925430702,16.246346654282377,19.19291336540077,22.488678022553177,65.53132563634146,0,1,140,Object Detection,249.35061279517006,0,45.64627198881979,-71.52399198352688
1062,2025-01-01 02:20:00,34.316595462296796,-89.12357253236162,407.0270514071673,11.218547452358404,138.02297078097322,-33.650087248923754,-15.63780981947722,15.048184664240186,8.573166966723576,51.94487863912376,50.589167833336866,0,1,141,Tracking,190.3906832275767,0,49.35327372867412,-42.16987508530727
1138,2025-01-01 02:21:00,31.27580302795564,-80.63042176968938,266.6017727615516,18.17793489857092,60.58029186277662,-33.31286879239071,-4.9218895191667755,15.066258637585141,12.445586129639505,56.26887557907294,94.76464580346254,1,0,142,Tracking,93.65157152656025,0,50.25497985589051,-38.375526279027575
1498,2025-01-01 02:22:00,32.83775905798724,-84.46197759287624,428.8719547265693,23.616462244570386,301.1191892891531,15.857617172088531,-14.928479723731966,14.32650686952056,16.858466080201442,94.49474208215045,54.56937404927156,0,0,143,Recon,156.94527794658006,1,44.995692543600846,-35.97087784395167
1592,2025-01-01 02:23:00,33.630822963986354,-86.94475689341976,440.13920044795816,30.423230298382396,197.6074673904258,32.274009628424835,-10.765944839010057,13.387708473397383,0.17677612409024235,19.557064710152304,63.105549379973525,0,1,144,Surveillance,127.22940506469182,1,44.323522842011386,-49.65842855431334
1391,2025-01-01 02:24:00,36.45917241331601,-86.03018482925717,184.79762187946324,34.60516562164799,68.11048526052775,41.64593254750251,-21.901290835701474,9.5398383075635,-2.2124188567235104,64.1675710161496,55.68914457001502,1,0,145,Recon,554.0343255333801,1,49.186655031050506,-36.96357203059576
1674,2025-01-01 02:25:00,35.707783046689116,-85.52797459495164,362.9413928680514,46.42422868857687,259.3382394911205,11.551240579449995,-12.229394066460088,12.8455632701423,34.02109514368024,81.72592689875229,65.18546511681578,1,0,146,Object Detection,135.7442952679512,1,40.0,-79.22925207757962
1418,2025-01-01 02:26:00,33.560967258978465,-83.99405666639383,288.9127216651927,30.394160382018306,184.0009098562202,-28.430880897513873,4.337028872520072,0.767231095759493,11.686185141571052,56.024146378305254,57.64040631938617,0,0,147,Recon,350.33017055334676,1,69.03249824941048,-74.63820991152383
1288,2025-01-01 02:27:00,39.8651524879298,-84.84320572303503,452.062695168594,30.051025785029175,217.55267360651513,-35.491468909596236,-3.4887775145361637,12.429288453135692,10.604680481626957,25.50036525010757,23.83740468635807,0,0,148,Tracking,380.2772157605689,0,42.49965066984984,-75.37119664739507
1378,2025-01-01 02:28:00,36.05774819356887,-80.80608026785583,186.29627167058163,12.009720392919284,165.92340175436948,28.156587438308208,-9.196874325845329,15.557554110737543,-8.219392486357926,26.255023002000023,90.56385488061589,1,1,149,Recon,353.4843071626622,0,51.936417070126865,-44.36976578726335
1772,2025-01-01 02:29:00,32.37226791735994,-85.03036517094169,371.1252801240177,11.396462106248952,298.3352341744823,7.088082872399937,14.787127731426835,10.007167207687804,14.898815129369662,3.925305307099991,55.55150551326158,0,0,150,Surveillance,113.49047447663351,0,59.84258508282608,-76.52091082282105
1489,2025-01-01 02:30:00,31.017824726204037,-80.07841985176688,343.100848901089,32.046398476654886,298.642577645898,10.645651891234785,23.610598283599074,7.150266568544739,17.708486080550003,30.54442265484817,67.1154918805879,1,1,151,Tracking,232.15111534529765,1,56.38781681264187,-55.18178137668465
1230,2025-01-01 02:31:00,31.52859139184332,-81.48575042254905,218.12059102873312,27.52714452993378,255.37997585677905,25.331587987923825,15.407353374143824,5.5485346960195825,17.942043547733324,74.46036790033801,31.13502422063896,1,0,152,Surveillance,87.68597953010277,1,58.252860765057854,-56.36465506818554
1040,2025-01-01 02:32:00,32.45957728384508,-87.91489485642664,154.64036146046905,43.567215799211944,37.94449586272642,18.294950495920645,-10.07995787293925,12.85604100324165,25.35155846614422,4.751775720711038,20.271027838611133,0,0,153,Recon,273.66175361201067,0,40.0,-64.46482382208795
1027,2025-01-01 02:33:00,31.60681373259556,-80.69404785356083,360.65590419091063,16.427183388473807,301.9873902854648,30.101242757048695,14.666530070253224,13.856023972598175,-1.1259082504494113,21.929528250483067,39.623207491491435,0,1,154,Tracking,161.84342288665968,1,48.0366811097159,-36.47974150289501
1134,2025-01-01 02:34:00,31.865670240513058,-88.83633602114524,395.4389832529323,10.998866484681983,241.56467299184754,-39.94074850861094,-20.881189051556927,17.41935199725085,2.61115671153094,70.6232498531782,76.36688257066803,0,1,155,Object Detection,363.2815679735651,0,47.298551020224124,-71.4783399060002
1200,2025-01-01 02:35:00,32.85095168693847,-81.82550291508808,226.25093750534,27.961550717205036,250.92869976154782,22.276857307185438,-22.180920714522543,6.846681649219814,30.536523261520635,78.26515628228766,27.93556240903029,1,0,156,Tracking,434.11653267851426,0,55.11941758386089,-62.37686078003801
1839,2025-01-01 02:36:00,31.733735952947548,-86.1937670652342,357.9330416089255,19.4991422700903,130.6738225453938,31.576748158988593,-9.262377777830466,15.395446147711711,37.3585308421697,45.53184100619284,92.71099523091743,1,0,157,Surveillance,347.3447245105415,0,48.730636092623186,-41.29142499885354
1779,2025-01-01 02:37:00,38.96765424626425,-81.2202567955493,258.0523630446013,11.984574933553498,316.54064021652243,-19.24784617875171,18.462142142643422,11.227116483786759,-3.2033626316339685,69.80743384786489,37.20180554849477,0,1,158,Tracking,294.4878161701537,1,55.273660120499216,-78.47888428033579
1929,2025-01-01 02:38:00,30.80233745661642,-81.3194330989255,385.28275331304707,38.98393147390516,261.1337760845487,12.64025465939276,-15.219105165461889,17.656729813561583,14.882477725260909,38.7952168654892,36.36748914334206,0,0,159,Object Detection,269.16004726261394,0,40.0,-46.35247998768157
1032,2025-01-01 02:39:00,35.245113895702545,-81.94074599882379,179.68610995762123,14.4637199982899,40.53256795051001,-16.72541425467251,-26.204795466079226,10.556242165912415,0.7088126369793422,15.991324502412752,34.52063692971964,0,0,160,Object Detection,514.513554772382,1,55.107719362002186,-39.18011368192147
1047,2025-01-01 02:40:00,34.10396826989661,-82.09969563692938,456.08600105446976,34.33278000031087,146.80009238621855,41.21739598342086,-22.097427887618693,10.352596567959345,-6.996341582250878,39.814949352290654,21.11853703770918,1,1,161,Object Detection,178.45875513524584,0,44.2402705676968,-33.38660805809164
1502,2025-01-01 02:41:00,39.82378616908606,-86.9532086090196,214.96383858623187,21.241990006675564,319.09693030565103,-41.99187848080466,21.52469811177481,11.557541628818182,6.275166906306772,57.996782020314285,81.74443747825876,1,0,162,Object Detection,456.4779033455892,1,54.43836548685173,-36.185167975425756
1406,2025-01-01 02:42:00,31.120389021680523,-89.19080716948748,247.11439510246117,16.93984201420088,16.990812611056437,7.181355944965951,8.026997084837255,14.986307102848688,-2.815618740789363,94.80532818528903,90.00276249962069,1,0,163,Surveillance,469.04045535966424,1,50.557741037164256,-64.03079415831574
1573,2025-01-01 02:43:00,33.978555990457416,-85.97019821234838,123.23678083213991,25.190060916772698,346.10998307113783,-30.01468076554364,-14.8079301978014,19.293809576569217,25.496653671712316,6.875095208867732,69.1330162092959,0,0,164,Tracking,286.3680039261966,0,40.0,-50.68179293385237
1727,2025-01-01 02:44:00,39.69470433275369,-88.2647548501349,144.60488492851056,42.057831048918146,244.4985245950426,19.09981846594428,3.317749519690878,1.471267084315313,16.68627068357222,50.73940938449606,35.05599853438898,1,0,165,Recon,220.54232358184524,1,59.5341501603492,-76.1353253424767
1804,2025-01-01 02:45:00,38.6550712589398,-83.05048911097538,306.34476108493124,25.683743076182907,227.29535195161557,-29.16987449232041,1.6547773455210226,1.0686920478203432,-2.808276450484456,32.89197782107244,42.82223975527038,1,0,166,Object Detection,314.0924024648266,1,69.3029683417949,-67.10649982259957
1098,2025-01-01 02:46:00,38.1707207094928,-86.53900273462214,207.0370706911886,40.03078596844223,97.4013323356769,-23.81550642914782,9.326158706439678,18.75100674814677,-9.537920579724283,50.83116942766945,58.074135789197065,0,1,167,Recon,110.33551998205719,0,40.0,-75.28888106262463
1683,2025-01-01 02:47:00,32.5790282704494,-80.24389799140086,434.1920902968778,15.019451871966027,89.56504394610374,-0.506627005881775,-16.00874673470302,10.597512510364123,30.407852451210637,2.397544737653168,96.34767612986407,1,0,168,Recon,84.8022174037086,0,60.93001665627515,-64.2406354923018
1871,2025-01-01 02:48:00,31.70887587390066,-83.59027922654668,105.87735546198154,40.91085678660316,339.1409590158944,37.33514549971903,21.86417923166386,12.298060291338722,-1.190279691787623,31.302535470158134,39.788109745419426,0,1,169,Tracking,120.26572770402157,1,40.0,-36.240639327063555
1725,2025-01-01 02:49:00,36.68643219924431,-81.7751943636564,251.6376194687745,19.477332996265947,107.3780835242842,-25.945706506682626,-11.43788627519923,9.648472031894578,20.310832111038298,81.9868147527005,78.53167231359105,1,1,170,Recon,161.05831698960213,1,58.81755666943698,-62.64165801628537
1986,2025-01-01 02:50:00,39.293759891275855,-88.67475327258151,234.93821870763708,37.09572519555491,279.18190681883976,-32.018398099370685,11.647899238574212,1.8731490521494898,6.846095653837278,55.39417338546375,55.155857863433624,0,0,171,Recon,332.25548298254324,1,63.22142508426693,-51.90509484992868
1546,2025-01-01 02:51:00,35.5676289301393,-81.37985517727378,107.73105236704042,32.631262193639856,141.5238473545485,23.30791486686276,-29.032521217667107,15.36178756837333,19.27429691575178,45.05824928161174,43.82778786880174,0,1,172,Surveillance,518.5337835270059,0,40.0,-58.33095759425296
1960,2025-01-01 02:52:00,35.716126894699,-80.77242809486606,149.7473596002041,47.165788688467494,50.13146548249343,0.055757910053785054,-7.640572206351166,14.944492901771739,5.782681349116201,28.552507171533957,56.4732749617691,1,0,173,Recon,187.24685927983097,1,40.0,-57.054173785063234
1738,2025-01-01 02:53:00,32.79979093660284,-85.12938081181065,265.4570699674541,25.49290071901256,3.857507170329222,37.06066011435942,-8.8974109224715,6.23406642985624,-5.653021965387292,29.80425227913559,25.696537403298603,0,1,174,Tracking,564.9874858032601,0,57.35507052111109,-31.521397408172085
1612,2025-01-01 02:54:00,37.69492933191937,-83.93747062249022,297.1458337789786,12.646607553377617,195.9326413254903,-31.804689855614193,2.609065714980872,6.124784904568008,1.14750042788768,38.31014335905844,83.894989674429,1,1,175,Recon,575.6502708249019,1,69.81662538161808,-65.19227658680711
1942,2025-01-01 02:55:00,31.870437485575234,-82.35190199097005,261.71589890194764,10.766219422050117,351.2803746776158,13.133510372073538,-25.63582429336821,16.75682761811037,-0.5970716760462196,83.55707099645603,39.46415423863737,0,1,176,Tracking,577.8084866164108,0,45.04965047661794,-48.63377652384143
1461,2025-01-01 02:56:00,33.23679236404244,-88.25161372739588,312.37507136483754,43.07434243891012,132.8890297713136,-24.040876846336648,17.407882423566498,1.4471451548265324,11.400967621982193,96.72132068082684,78.03296985543764,0,0,177,Object Detection,512.2838767252149,1,63.37183545643564,-58.99686652102765
1642,2025-01-01 02:57:00,34.25436438616417,-84.97433923536558,338.0526699622726,30.989425506457287,128.58924023749614,-30.891561421352463,-16.93315189394589,17.622102967131315,22.914189171307868,43.865538135037454,25.467869715855578,0,1,178,Recon,256.46552203076914,0,40.0,-76.94269094761569
1768,2025-01-01 02:58:00,35.07610378684455,-86.01336972227686,103.96952845113425,41.00976207339797,123.87298242579915,16.50864736415435,10.622268892920616,5.1332337979182885,3.190303747317877,39.33528387477618,96.40788449325488,1,1,179,Recon,99.24931194141645,1,58.86943981678992,-55.5334584187882
1004,2025-01-01 02:59:00,32.4240973241508,-88.53626007837751,285.63806378140157,19.377024000460587,187.39578142974904,8.431615791785987,18.192727394645594,11.859694955109878,-9.396503234969103,84.65507758198628,35.44119883245589,0,1,180,Recon,367.1621151539072,1,50.136217972795535,-39.332833547744585
1217,2025-01-01 03:00:00,31.148368247392035,-86.32465577708469,485.3996963550353,23.80334982052935,158.6393580327457,22.93447125260981,3.71261737449079,18.719883580035553,15.946868213237845,42.69053206363036,90.61936609656644,0,0,181,Object Detection,361.6879797261062,0,40.0,-75.06235156591558
1502,2025-01-01 03:01:00,36.10620042441633,-89.31827690614506,307.6129120518195,11.204154888452758,316.7692656217252,-17.14836811984359,14.45299240331913,13.56245003073293,20.287974467948604,55.20181722956512,84.75785676923476,1,0,182,Surveillance,518.9869142391816,1,55.74880817123124,-76.52040763018455
1766,2025-01-01 03:02:00,32.88630553240256,-89.74188093050513,371.0169069835813,48.459692982964484,181.98748502045652,-4.682550925602904,9.711618732900334,8.288596249340731,38.14352470009048,23.094166459874444,97.42879392651328,0,1,183,Recon,597.8351675108968,1,48.93584040248762,-72.31842398033666
1397,2025-01-01 03:03:00,35.81238221422612,-88.64833710845177,224.7455431667533,36.71471626803253,182.79282174788477,-8.50754913026234,-8.668212170879542,13.790684178108304,19.47354015466234,74.35025357790752,58.23125287565997,0,1,184,Tracking,334.4049455424797,1,40.0,-41.77999443053469
1870,2025-01-01 03:04:00,31.543627152742022,-80.36884888410826,409.596551261105,47.32820351037225,49.813774099400376,43.56805175698628,18.53151234201392,6.879592726327404,13.558627968907093,53.19883182707819,78.19178350767612,0,1,185,Surveillance,246.41017676148348,1,50.395891142926686,-43.8002307927631
1794,2025-01-01 03:05:00,34.811401018548175,-84.50470464104983,409.168592750446,20.619856297162894,353.78623472773893,-18.69759389345509,-12.317917806868323,5.545168326983722,18.67008129488519,80.90345502403416,49.656852563022724,0,1,186,Surveillance,160.3869242403842,1,63.56542045375339,-51.74911155469447
1392,2025-01-01 03:06:00,35.32589432551586,-80.3417783884678,308.51841906165555,34.458544449026434,89.99024071277869,-18.466448548790982,4.272775065091032,19.933665558693594,36.39503149310135,78.07327300286697,34.749459041575506,1,0,187,Surveillance,62.591905401380195,0,40.0,-56.58867979536838
1206,2025-01-01 03:07:00,30.518235368224268,-85.67502121669868,490.4055293116854,37.13999873170551,26.41106428545696,-13.090661205425334,14.72386434849237,15.015804623595754,31.418907280082315,21.500476827002856,55.44607463467591,0,0,188,Recon,334.92139394399476,0,40.0,-35.583709264868894
1014,2025-01-01 03:08:00,33.36604278193921,-86.8818386691474,150.22008590506135,22.701988010303538,238.73264963107516,5.813467316128936,-7.262645411249544,12.894399547636352,6.148936668190402,71.56355505577623,33.25992123107639,0,0,189,Object Detection,359.9800800194017,1,46.18619902268317,-41.665108808325876
1857,2025-01-01 03:09:00,31.34414676938974,-84.93858137159756,106.7790659558324,43.9243694006252,214.33189325647416,-22.29095301626293,-11.833943542954497,7.105792864386375,1.862718182856863,80.00544079513713,98.56356982291072,1,1,190,Object Detection,505.4667791013946,1,53.682586553205724,-39.40288743490974
1553,2025-01-01 03:10:00,30.633749704727677,-85.6048831136709,408.0632847028384,47.88645851600991,149.45243543738846,37.376094634134645,-2.439239389630636,0.9832165831009632,3.1316806183036814,34.61072407823951,27.69971929125731,0,0,191,Recon,332.4715626621123,0,56.86030950491885,-39.336884932467285
1891,2025-01-01 03:11:00,39.89960232389945,-88.94335315738256,422.86221494595304,45.394204707840174,151.9892041970441,-21.088299162036286,19.077809660949214,0.6211375207031122,15.22105198576065,17.260911290227455,67.13693787620963,0,1,192,Tracking,554.8929082796706,1,62.77431639229466,-47.8641422627221
1460,2025-01-01 03:12:00,33.22353844974723,-83.59173685309794,148.0828916482305,39.5626790375749,282.6230115767152,35.62341584041752,25.79530578873989,11.083625108975976,27.20247256142889,0.263215557958818,70.11710842032447,1,1,193,Tracking,399.16507734857515,0,45.06312110529304,-57.09926878420271
1690,2025-01-01 03:13:00,38.09874445854635,-87.839618174904,206.23313318344242,21.09858718899816,70.45655043587367,-35.68724427180738,2.7050047715934085,15.240654420781022,15.160960359148106,45.09036530931482,63.04636342992434,1,1,194,Tracking,513.7815686393849,0,45.27403390693132,-36.76611237071748
1574,2025-01-01 03:14:00,32.54640654763764,-83.8041204510217,107.02094534665156,21.264641684225268,295.2911948201603,14.090643215968711,9.68797231941911,10.747583808877101,-6.610180208594371,35.24327315388416,72.9748708569467,1,0,195,Recon,140.08293679618345,1,55.16999862582783,-33.69962911983747
1863,2025-01-01 03:15:00,36.815027222239294,-83.49798907601847,217.3234443122259,48.53441281784151,233.54896100220654,36.62869665944193,24.196417334334853,16.81570143878229,26.17903502199905,55.49098338254089,29.294462000951278,1,1,196,Object Detection,521.88151036325,0,40.0,-78.80969783708285
